{
  "capitals": [
    {
      "name": "Paris",
      "population": 2133111,
      "lat": 48.856613,
      "long": 2.352222
    },
    {
      "name": "Londre",
      "population": 8799728,
      "lat": 51.507351,
      "long": -0.127758
    },
    {
      "name": "Barcelone",
      "population": 1620000000,
      "lat": 41.385063,
      "long": 2.173404
    },
    {
      "name": "Copenhague",
      "population": 653648,
      "lat": 55.675758,
      "long": 12.56902
    },
    {
      "name": "Dublin",
      "population": 544107,
      "lat": 53.3493795,
      "long": -6.2605593
    }
  ]
}
